[
  {
    "id": 1,
    "name": "Oasis Chenini",
    "lat": 33.8780492,
    "lng": 10.0672264,
    "category": "agriculture",
    "zone": "chenini",
    "query": "chenini oasis gabes tunisia",
    "riskScore": null,
    "environmentType": "oasis",
    "recommendations": [],
    "createdAt": "2026-04-15T21:57:12.468954"
  },
  {
    "id": 2,
    "name": "Chenini Primary School",
    "lat": 33.8838128,
    "lng": 10.0586906,
    "category": "urban",
    "zone": "chenini",
    "query": "chenini school gabes tunisia",
    "riskScore": null,
    "environmentType": "education",
    "recommendations": [],
    "createdAt": "2026-04-15T21:57:17.485882"
  },
  {
    "id": 3,
    "name": "Fishing Port of Gabes",
    "lat": 33.8957021,
    "lng": 10.1162302,
    "category": "coastal",
    "zone": "gabes_port",
    "query": "gabes port fishing tunisia",
    "riskScore": null,
    "environmentType": "port",
    "recommendations": [],
    "createdAt": "2026-04-15T21:57:21.375254"
  },
  {
    "id": 4,
    "name": "GCT Phosphate Processing Complex",
    "lat": 33.916627,
    "lng": 10.095399,
    "category": "industrial",
    "zone": "gabes_industrial",
    "query": "gct chemical plant gabes tunisia",
    "riskScore": null,
    "environmentType": "chemical",
    "recommendations": [],
    "createdAt": "2026-04-15T21:57:25.947389"
  },
  {
    "id": 5,
    "name": "Ghannouch Industrial Zone",
    "lat": 33.9350,
    "lng": 10.0580,
    "category": "industrial",
    "zone": "ghannouch",
    "query": "industrial zone ghannouch gabes tunisia",
    "riskScore": null,
    "environmentType": "industrial_zone",
    "recommendations": [],
    "createdAt": "2026-04-15T22:05:00.000000"
  },
  {
    "id": 6,
    "name": "Gabes Cement Company",
    "lat": 33.8746411,
    "lng": 9.9935123,
    "category": "industrial",
    "zone": "gabes_industrial",
    "query": "phosphate processing gabes tunisia",
    "riskScore": null,
    "environmentType": "cement",
    "recommendations": [],
    "createdAt": "2026-04-15T21:57:34.176469"
  },
  {
    "id": 7,
    "name": "Ghannouch Coastal Town",
    "lat": 33.9430531,
    "lng": 10.0667387,
    "category": "coastal",
    "zone": "ghannouch",
    "query": "ghannouch coastal gabes tunisia",
    "riskScore": null,
    "environmentType": "coastal_town",
    "recommendations": [],
    "createdAt": "2026-04-15T21:57:38.726624"
  },
  {
    "id": 8,
    "name": "Zarat",
    "lat": 33.6706197,
    "lng": 10.3525964,
    "category": "coastal",
    "zone": "zarat",
    "query": "zarat gabes tunisia",
    "riskScore": null,
    "environmentType": "coastal_town",
    "recommendations": [],
    "createdAt": "2026-04-15T21:57:41.232203"
  },
  {
    "id": 9,
    "name": "Sea Fishing Port Zarat",
    "lat": 33.7012164,
    "lng": 10.3627725,
    "category": "coastal",
    "zone": "zarat",
    "query": "zarat fishing gabes tunisia",
    "riskScore": null,
    "environmentType": "port",
    "recommendations": [],
    "createdAt": "2026-04-15T21:57:45.383483"
  },
  {
    "id": 10,
    "name": "Metouia Agricultural Zone",
    "lat": 33.9587891,
    "lng": 10.0019938,
    "category": "agriculture",
    "zone": "metouia",
    "query": "metouia gabes tunisia",
    "riskScore": null,
    "environmentType": "farmland",
    "recommendations": [],
    "createdAt": "2026-04-15T21:57:47.894913"
  },
  {
    "id": 11,
    "name": "Metouia Irrigation Oasis",
    "lat": 33.9505427,
    "lng": 10.00595,
    "category": "agriculture",
    "zone": "metouia",
    "query": "metouia agriculture gabes tunisia",
    "riskScore": null,
    "environmentType": "oasis",
    "recommendations": [],
    "createdAt": "2026-04-15T21:57:51.787362"
  },
  {
    "id": 12,
    "name": "Gabes City Center",
    "lat": 33.888077,
    "lng": 10.097522,
    "category": "urban",
    "zone": "gabes_center",
    "query": "gabes city center tunisia",
    "riskScore": null,
    "environmentType": "city_center",
    "recommendations": [],
    "createdAt": "2026-04-15T21:57:54.142274"
  },
  {
    "id": 13,
    "name": "Mohammed Ben Sassi University Hospital",
    "lat": 33.8634805,
    "lng": 10.1153674,
    "category": "urban",
    "zone": "gabes_center",
    "query": "gabes hospital tunisia",
    "riskScore": null,
    "environmentType": "hospital",
    "recommendations": [],
    "createdAt": "2026-04-15T21:57:58.135550"
  },
  {
    "id": 14,
    "name": "University of Gabes",
    "lat": 33.8533725,
    "lng": 10.1018956,
    "category": "urban",
    "zone": "gabes_center",
    "query": "gabes university tunisia",
    "riskScore": null,
    "environmentType": "education",
    "recommendations": [],
    "createdAt": "2026-04-15T21:58:01.728001"
  },
  {
    "id": 15,
    "name": "Mareth",
    "lat": 33.6290091,
    "lng": 10.2880581,
    "category": "agriculture",
    "zone": "mareth",
    "query": "mareth gabes tunisia",
    "riskScore": null,
    "environmentType": "farmland",
    "recommendations": [],
    "createdAt": "2026-04-15T21:58:05.928754"
  },
  {
    "id": 16,
    "name": "El Hamma",
    "lat": 33.8859243,
    "lng": 9.7950947,
    "category": "urban",
    "zone": "el_hamma",
    "query": "el hamma gabes tunisia",
    "riskScore": null,
    "environmentType": "thermal_town",
    "recommendations": [],
    "createdAt": "2026-04-15T21:58:10.411581"
  },
  {
    "id": 17,
    "name": "Matmata",
    "lat": 33.4552061,
    "lng": 9.7678687,
    "category": "agriculture",
    "zone": "matmata",
    "query": "matmata gabes tunisia",
    "riskScore": null,
    "environmentType": "rural",
    "recommendations": [],
    "createdAt": "2026-04-15T21:58:25.970029"
  },
  {
    "id": 18,
    "name": "SAET Power Station",
    "lat": 33.8841019,
    "lng": 10.1015207,
    "category": "industrial",
    "zone": "gabes_center",
    "query": "power plant gabes tunisia",
    "riskScore": null,
    "environmentType": "energy",
    "recommendations": [],
    "createdAt": "2026-04-15T22:09:44.786346"
  },
  {
    "id": 19,
    "name": "Gabes South Industrial Zone",
    "lat": 33.8650,
    "lng": 10.0750,
    "category": "industrial",
    "zone": "gabes_industrial",
    "query": "simulation: industrial zone south gabes",
    "riskScore": null,
    "environmentType": "industrial_zone",
    "recommendations": [],
    "createdAt": "2026-04-15T22:10:00.000000"
  },
  {
    "id": 20,
    "name": "Ghannouch Gas Processing Plant",
    "lat": 33.9280,
    "lng": 10.0720,
    "category": "industrial",
    "zone": "ghannouch",
    "query": "simulation: gas plant ghannouch",
    "riskScore": null,
    "environmentType": "energy",
    "recommendations": [],
    "createdAt": "2026-04-15T22:10:01.000000"
  },
  {
    "id": 21,
    "name": "Bouchamma Residential Area",
    "lat": 33.8900,
    "lng": 10.0850,
    "category": "urban",
    "zone": "gabes_center",
    "query": "simulation: residential bouchamma gabes",
    "riskScore": null,
    "environmentType": "residential",
    "recommendations": [],
    "createdAt": "2026-04-15T22:10:02.000000"
  },
  {
    "id": 22,
    "name": "Hammam Chanchou Thermal Springs",
    "lat": 33.903969,
    "lng": 9.8794579,
    "category": "urban",
    "zone": "el_hamma",
    "query": "el hamma thermal gabes tunisia",
    "riskScore": null,
    "environmentType": "thermal",
    "recommendations": [],
    "createdAt": "2026-04-15T22:09:57.316683"
  },
  {
    "id": 23,
    "name": "GCT Ammonitrate Plant",
    "lat": 33.9200,
    "lng": 10.0880,
    "category": "industrial",
    "zone": "ghannouch",
    "query": "gct ammonitrate plant ghannouch gabes",
    "riskScore": null,
    "environmentType": "chemical",
    "recommendations": [],
    "createdAt": "2026-04-16T09:20:00.000000"
  },
  {
    "id": 24,
    "name": "ALKIMIA Chemical Plant",
    "lat": 33.9225,
    "lng": 10.0903,
    "category": "industrial",
    "zone": "ghannouch",
    "query": "alkimia chemical plant ghannouch gabes",
    "riskScore": null,
    "environmentType": "chemical",
    "recommendations": [],
    "createdAt": "2026-04-16T09:20:01.000000"
  },
  {
    "id": 25,
    "name": "ICF Industries Chimiques du Fluor",
    "lat": 33.9058,
    "lng": 10.0972,
    "category": "industrial",
    "zone": "gabes_port",
    "query": "icf industries chimiques fluor gabes",
    "riskScore": null,
    "environmentType": "chemical",
    "recommendations": [],
    "createdAt": "2026-04-16T09:20:02.000000"
  }
]